name,highway_class,longitude,latitude
NH-48 Delhi-Mumbai,NH,72.55,23.06
NH-147 Ahmedabad-Gandhinagar,NH,72.62,23.15
NH-947 Ahmedabad-Rajkot,NH,72.42,22.99
SH-17 SGRD Highway,SH,72.58,23.03
SH-41 Ahmedabad-Mehsana,SH,72.58,23.08
SH-68 Ahmedabad-Vadodara,SH,72.64,22.97
