lon,lat,name,category,osm_id
72.5591462,23.0144556,Suvidha Shopping Centre,competitor,440296289
72.5965751,23.01524,10 (Ten) Acres Mall,anchor,440360562
72.60021,23.0182439,,competitor,440367264
72.5912229,23.0235904,Arihant Agency,competitor,631823296
72.5889014,23.0380231,Bharat Kirana Stores,competitor,1369674748
72.5768457,23.0244067,Ahmedabad Historic Gujari Bazaar (Sunday Market),competitor,1429922824
72.5646439,23.0856343,Shree Aaiji Super Market,anchor,2211695012
72.5613239,23.0325848,Induben Khakhrawala,competitor,3242226332
72.5603885,23.0328013,Romano,competitor,3242235764
72.5601894,23.0340092,Chanel,competitor,3242312721
72.5841473,23.0247302,fish market,competitor,3306683655
72.5834189,23.0247665,meat market,competitor,3306683656
72.4718735,23.0307489,Bopal Vegetable Market,anchor,3370726902
72.5914619,23.0843928,,anchor,3500454470
72.5415308,23.0891843,CHANDLODIA MARKET,competitor,3775187616
72.5242142,23.0269648,Star Bazaar,anchor,4199023908
72.6169583,23.1972877,Maheshwari kirana and parlour,anchor,4337979891
72.6442794,23.0510386,Manki children store,competitor,4358525891
72.5975122,23.0147236,Big Bazaar,anchor,4368248194
72.5597398,23.0323274,,competitor,4378619789
72.6301401,23.0857612,Jagdamba Sales Corporation,competitor,4404465899
72.5265833,23.0475825,Reliance Smart,anchor,4444998991
72.6711806,23.0552881,DMart,anchor,4478346291
72.5761383,23.0680121,D Mart,anchor,4480996895
72.5758088,23.0680414,Relince Digital,anchor,4480996896
72.5760578,23.0679571,Arved transcube Plaza,anchor,4481079389
72.5617091,23.0379538,Half Ticket,competitor,4483496958
72.5601493,23.0337539,Half ticket,competitor,4486247796
72.6416185,23.0739761,Mahlaxmi papad,anchor,4488137621
72.6414355,23.0731757,Kubernagar Main market - sindhi market,anchor,4488137627
72.5880275,23.0277198,readymadepocket,competitor,4578929190
72.4954264,23.0442577,"Payload Electronics Lab, Physical Research Laboratory",competitor,4676023589
72.5759446,23.0681594,D Mart,anchor,4794246526
72.5737904,23.1876995,Amba Cash N Carry,anchor,4810668977
72.5880236,23.0277361,readymadepocket,competitor,5136979522
72.5299101,23.045838,Vijay Sales,anchor,5141463317
72.4751813,23.0174425,SoBo Centre,anchor,5199997866
72.6002491,23.0004179,Shopping ahemadabad,competitor,5424401211
72.5783117,23.0331551,,competitor,5527662868
72.4820619,22.9868059,The Haqq Factory Store,anchor,5611952675
72.6136546,23.1925439,B-Mart Supermarket,anchor,6113414383
72.5834326,22.9678866,Bhoomi Textile,competitor,6124511086
72.6705656,23.0520663,RIVERLEAF,competitor,6983018834
72.4705235,23.0168879,Apple Tree,anchor,6989202576
72.4729214,23.016933,Hind Hypermarket,anchor,6992389930
72.5244892,23.0265633,Iscon Emporio,anchor,7418072411
72.5555815,23.1135557,Hind Store,anchor,7554841091
72.4699729,23.0167363,Mahakali,anchor,7633141323
72.5578748,23.0200403,Monte Carlo Exclusive Showroom,competitor,8138732693
72.5084185,23.0117186,Monte Carlo Showroom,competitor,8138781699
72.5957915,23.1029944,4D Square mall.,anchor,8138856440
72.5951743,23.1028203,Monte Carlo Exclusive Showroom,competitor,8138924274
72.5546839,23.0210027,SkinYoga,anchor,8143691114
72.5815218,23.0271285,"Ahmedabad Trunk, House of Mg",competitor,8220949079
72.5599716,23.0139658,Max Fashion,competitor,8244919122
72.5101534,23.0268655,Max Fashion,competitor,8244936295
72.5542516,23.0253822,Greenobazaar,anchor,8252389265
72.5836927,22.9830095,Kabadi market,competitor,8847670306
72.562492,23.037796,My My,competitor,9254988755
72.5573436,23.0269177,Manmandir,competitor,9287472853
72.5289085,22.9175047,Varsha Fashion Private Limited,competitor,9296323022
72.5596837,23.0313547,Adani Selection,competitor,9312365803
72.5750767,23.1766106,,competitor,9316233977
72.5797518,23.188413,,competitor,9316233979
72.5550503,23.0284321,Patidar,competitor,9318825268
72.5577834,23.0276806,Tape Me Ft,competitor,9329076828
72.5578597,23.0278177,Telarica,competitor,9329077836
72.6041333,22.9930426,The Arvind Store,competitor,9370468870
72.5714659,23.0260527,Asopalav,competitor,9370470858
72.6548463,22.9945345,Ramtudi Fashion,competitor,9632871827
72.5066805,23.0269943,Shivalik Shilp,anchor,9809117886
72.6639799,23.0464077,RituRaj The Wedding Studio,competitor,10081226546
72.6831131,23.0863499,Capital Security System,competitor,10223459792
72.6725641,23.0206424,Micro Machine Tools,anchor,10310287131
72.5880349,23.0446678,Reliance mart,anchor,10591957830
72.5256771,23.040802,market,anchor,10750415883
72.5107957,23.0338871,JK MEDIRISE Disposable Medical Devices,anchor,10781479077
72.5954156,23.1028912,United Colors Of Benetton,competitor,10959675371
72.5956096,23.1030052,Will's Lifestyle.,competitor,10959743712
72.5208841,23.0581218,Palladium Mall,anchor,11300307469
72.503133,23.0277968,Amul Parlour,competitor,12165401787
72.6518607,23.0504883,Vardhman Group IND,anchor,12886030671
72.5188982,23.0131511,Siddhi Computer and Mobile,competitor,13039212537
72.5517045,23.0329052,St. Xavier's College,anchor,429795953
72.5537987,23.0337029,SLIMS - Som Lalit Institute of Management Studies,anchor,429795955
72.5432503,23.0085819,Jivraj Mehta Hospital,anchor,440305869
72.5312683,23.0487566,Sterling Hospital Div. Of Addlife Medical Institute Pvt. Ltd.,anchor,440320413
72.5917525,23.0924908,,anchor,611572691
72.5304396,23.0173915,"Medilink Hospital, Ahmedabad",anchor,761305685
72.641845,23.2196609,Civil Hospital,anchor,1241884697
72.5679365,23.1039413,Health Center,anchor,1349429248
72.5639517,23.0033217,Ahmedabad Institute Of Medical Services (Aims),anchor,1781762768
72.56227,23.0090048,Shushtrut Hospital,anchor,1781764967
72.6046567,22.9986434,AMC MET Medical College,anchor,2524142390
72.6030289,22.998722,KK Shah Jarodwala Science College,anchor,2529047723
72.5699511,23.0368587,saviour annexe hospital,anchor,3293760662
72.5901213,23.0836049,Geeta Maternity Hospital,anchor,3500454471
72.5906964,23.0829627,Sabarmati Development Society Sanchalit Sheth Shri Pukhraj Raichand General Hospital,anchor,3500459652
72.6107232,23.0389267,GCS Medical College Hospital and Research Centre,anchor,3727529631
72.5307242,23.0830479,RC TECHNICAL INSTITUTE,anchor,3775189519
72.5753408,23.1764265,Amba Health Centre & Hospital,anchor,4330126136
72.5363217,23.0997272,vizcare hospital,anchor,4415934891
72.5412888,23.0457576,Sunflower Womens Endo Infertility and Hospital Pvt. Ltd.,anchor,4449189194
72.533033,23.0460963,little flower,anchor,4449189293
72.5419051,23.0455774,May Flower Womens Hospital Pvt. Ltd.,anchor,4449201990
72.5148851,23.0283544,SN Collage,anchor,4486373609
72.5692947,23.0441852,Gujrat Vidhyapeeth,anchor,4486700549
72.6074852,23.0494133,"Kidny hospital , asarwa",anchor,4488014610
72.6071588,23.0496453,"Gujarat Institute Of Nursing Education And Research , Asarwa ,Ahemedabad",anchor,4488016247
72.604565,23.0499136,Government Dental College and Hospital,anchor,4488020552
72.6043173,23.0497247,"Government Dental College ,Ahemedabad",anchor,4488020553
72.6027712,23.0524472,"BJ Medical College ,Haripura -Asarwa",anchor,4488021754
72.6157541,22.99465,Vani Hospital & IVF center,anchor,4492330390
72.615422,22.994662,Vani IVF Center,anchor,4514853390
72.657885,23.044384,,anchor,4547563289
72.5638235,23.0858856,Aalisha Clinic,anchor,4572892513
72.5592841,23.0932069,BalMukund Hospital,anchor,4572893586
72.5512244,23.0848906,S G Hospital Chandlodiya,anchor,4585303203
72.5434079,23.0249306,Planet Women Fertility and Counseling,anchor,4650625621
72.5287891,23.0300762,Excel Eye Care,anchor,4746799624
72.5700771,23.0576222,Shivam X-ray & Sonography clinic,anchor,4794228821
72.6166652,22.9991685,ESIS HOSPITAL,anchor,4977778522
72.6193052,22.9992751,Rukshmani Hospital,anchor,4977793222
72.4751813,23.0174425,SoBo Centre,anchor,5199997866
72.6847766,23.2127589,IIT Gandhinagar,anchor,5216737197
72.6301367,23.1149923,SSIT (shree Swaminarayan institute of technology),anchor,5998771288
72.6023157,22.995052,Aarna Hospital,anchor,6263502186
72.5254109,23.1053006,"Samarpan General Hospital, Ahmedabad",anchor,6968273217
72.5928806,23.0495869,Shree Bharti Vallabh Hospital,anchor,6968282377
72.6250631,22.9982535,"Kunal Medical Hospital, Ahmedabad",anchor,6968376270
72.5339005,23.052184,Nandan Maternity Home,anchor,6968395410
72.5374953,23.0501988,"Kalrav Children Hospital, Ahmedabad",anchor,6968404884
72.5364487,23.0461279,Cornea Foundation Hospital,anchor,6968417889
72.6411603,23.056598,Prathna Surgical And Medical Hospital,anchor,6968418270
72.545561,23.0133094,Arihant Fracture and Orthopedic Hospital,anchor,6968419937
72.5338505,23.0499504,Chandrabhan Hospital and Gynac Institute,anchor,6968717525
72.6335469,23.0856728,"Jeevandeep Hospital, Sardanagar",anchor,6968717606
72.567755,23.0383141,"Jagmohan Hospital, Ahmedabad",anchor,6968717622
72.5895064,23.0834466,Vasudha Eye Hospital,anchor,6968717638
72.6448899,23.0146498,"Dhwani General Hospital, Nursing Home and Materity Home",anchor,6968859256
72.6302853,23.0401061,Kakadiya Hospital,anchor,6968861329
72.5157067,23.0506982,Samarpan Maternity And Urosurgical Hospital,anchor,6968861334
72.5372402,23.0052925,"Sankalp Eye Hospital, Ahmedabad",anchor,6968861335
72.6369452,23.0577024,Suvan Eye Care,anchor,6969601192
72.6024091,22.9745791,Matrupooja Eye Hospital,anchor,6969601197
72.5187524,23.0034352,Shaishav Children Hospital And Neonatal Care Unit,anchor,6969601212
72.5258862,23.047633,"Mehta Hospital, Siddhachal",anchor,6969601213
72.5789867,23.0333194,Lifecare Emergency Centre,anchor,6969601214
72.5641099,23.0133482,Bavishi Hospital,anchor,6969601219
72.5591491,23.072936,Poojan Children Hospital And Neonatal Care Centre,anchor,6969611589
72.5295308,23.0241738,Shanti Multi Speciality Hospital,anchor,6969611594
72.6428381,23.2150357,"Vinayak Orthopaedic Hospital, Pathika S.T. Stand",anchor,6969611595
72.537851,23.0589018,Cutis Cosmetic Plastic Surgery Centre,anchor,6969753319
72.5261003,23.0228001,Rathi Hospital,anchor,6969761669
72.5608003,23.0519495,Minal Infertility Clinic and Nursing Home,anchor,6969864002
72.5665131,23.0486991,Navkar Surgical Hospital,anchor,6969886484
72.5703567,23.0575049,"Navjyot Eye Hospital, Ahmedabad",anchor,6969893727
72.5597177,23.014477,Aarna Super Speciality Hospital,anchor,6969931781
72.5456992,23.0130378,"Shalin Hospital, Ahmedabad",anchor,6969940932
72.5469075,23.0827039,Samata Hospital Pvt.Ltd,anchor,6969952025
72.5595813,23.0731324,Amijeet Maternity Hospital,anchor,6969999192
72.5333127,23.0471787,Shreeji Orthopaedic And Ent Hospital,anchor,6970024809
72.6406024,23.0459742,Anand Hospital and Multispeciality,anchor,6970030047
72.5325295,23.0363111,Shivam Orthopaedic and Gynec Hospital,anchor,6970039123
72.5838657,23.1148697,Satyam Children Hospital,anchor,6970058728
72.5245567,23.0324778,Aakshardeep Eye Hospital,anchor,6970101822
72.5611098,23.0674244,"Maruti Orthopedic Hospital, Nava Vadaj",anchor,6970133731
72.5695668,23.0467529,Chetna Maternity Home,anchor,6970150307
72.5955185,23.0539474,"Akshardeep Orthopaedic Hospital, Shahibaug",anchor,6970228163
72.6297381,23.0360347,Tapan Hospital Pvt Ltd,anchor,6970233678
72.5209209,23.0502539,Udit Hospital Multi Speciality,anchor,6970257402
72.5420675,23.0217867,Saumya Children Hospital and Neonatal Care Center,anchor,6970275374
72.5616422,23.0474527,Life Care Institute Of Medical Sciences Research Hospital,anchor,6970292851
72.4740118,23.0307499,Vanza Hospital,anchor,6970328005
72.5615162,23.0201192,Niyati Ent Hospital,anchor,6970331911
72.6297938,23.0361821,"Metalia Hospital and ICCU, Diamond Market",anchor,6970343514
72.6254641,23.0352325,Chitrakut Surgical Hospital,anchor,6970365464
72.6059912,23.0487003,Jivansudha Heart and Medical Hospital,anchor,6970401154
72.5173965,23.0700266,Marengo CIMS Hospital,anchor,6970407444
72.5542313,23.0024291,Sneh Orthopaedic Hospital,anchor,6970408459
72.5411409,23.02741,Dr Sanjay Gandhi Hospital,anchor,6970425348
72.5914751,23.0997283,Om Pediatric and Neonatal Criticare Hospital,anchor,6970426107
72.6644231,23.0605503,Priyal Hospital,anchor,6970427669
72.5975604,23.0551196,"Anand Multi Speciality Hospital, Ahmedabad",anchor,6970443663
72.5659485,23.0396088,Dr Rupesh Shah Killol Children Hospital,anchor,6970443687
72.5906771,23.0494136,"Jeevandeep Hospital, Shashibaug",anchor,6970446765
72.518633,23.0034167,Naresh Hospital,anchor,6970460848
72.5333825,23.0482276,"Shraddha Surgical Hospital, Ahmedabad",anchor,6970462158
72.5887862,23.0462013,Baps Yogiji Maharaj Hospital,anchor,6970462555
72.5265187,23.0134377,Gynaecare Women's Hospital,anchor,6970462648
72.5608045,23.0521189,Rhythm Cardio Pulmonory Care Centre and Medical Hospital,anchor,6970466463
72.6121724,22.9960097,Aarti Surgical Nursing Home,anchor,6970467886
72.561315,23.0083964,Navkar Ear Nose Throat Hospital,anchor,6970468038
72.6595862,23.0738176,Gitanjali Children Hospital,anchor,6970512563
72.5930405,23.1089581,Shilp E.N.T Clinic and Hospital,anchor,6970516275
72.4747232,23.0294544,Shreeji Children Hospital,anchor,6970516599
72.6528769,23.0730267,Shivam Surgical Hospital,anchor,6970522371
72.5577027,23.0172667,Parimal Multispeciality Hospital,anchor,6970525741
72.588505,23.1093376,Netra Jyoti Eye and Ent Hospital,anchor,6970537843
72.5647707,23.0376566,Shrey Hospital,anchor,6970541617
72.5139306,23.0457442,Apex Heart Institute,anchor,6970544615
72.5625072,23.0085551,Het Eye Care,anchor,6970544855
72.5783663,23.1078991,"Utkarsh Hospital, Ahmedabad",anchor,6970546258
72.6222763,23.0334255,"Tilak Hospital (Multispeciality), Ahmedabad",anchor,6970549388
72.6336991,23.2054057,Hi Tech Hospital,anchor,6970553030
72.630339,23.0362408,"Sagar Orthopaedic Hospital, Bapunagar",anchor,6970554098
72.6365779,23.0389968,Kalrav Nenotal And Children Hospital,anchor,6970555031
72.5919754,23.0843348,Panchshil Hospital,anchor,6970569366
72.5623058,23.0453225,Welcare Women's Hospital,anchor,6970584034
72.5474321,23.0411016,Arpan Newborncare Centre,anchor,6970590541
72.554928,23.0023106,Sheth Hospital and Maternity Home,anchor,6970597384
72.645708,23.0217991,Shubham Ent Hospital,anchor,6970637983
72.6252736,23.0348264,Vasundhara Medical Hospital,anchor,6970657650
72.5330586,23.0057708,Shridhaj Orthopaedic Hospital,anchor,6970675546
72.5252219,23.026235,Clear Vision Eye Hospital (Unit 2),anchor,6970683370
72.5628076,23.0664632,"Jatan Children Hospital, Ahmedabad",anchor,6970688331
72.566667,23.0604581,Pulse Iccu and Hospital,anchor,6970711353
72.5326094,23.0461853,"Shree Raj Hospital, Ahmedabad",anchor,6970724547
72.5557615,23.0042154,Lekhadia Hospital,anchor,6970724571
72.6450308,23.0123687,Odhav Orthopaedic Hospital,anchor,6970724581
72.5667344,23.0686632,Ami-Sagar Hospital,anchor,6970724583
72.5589721,23.0074188,Amijyot Eye Hospital,anchor,6970732298
72.5887057,23.0826952,Khara Fracture and Orthopaedic Hospital,anchor,6970732333
72.5714216,23.0285678,Dr. Dilip Modi Hospital,anchor,6970732343
72.5595085,23.0082903,Ratnam Eye Hospital,anchor,6970767778
72.6427073,23.0536919,Navjivan Orthopaedic and Maternity Hospital,anchor,6970793021
72.6075442,22.9950715,"Akshar Surgical Hospital, Maninagar",anchor,6970805021
72.6082537,22.9957344,Synergy Neonatal and Pediatric Centre,anchor,6970824544
72.630925,23.0549888,Anand Surgical Hospital Ltd.,anchor,6970826977
72.561022,23.0309628,Navneet Memorial Hospital,anchor,6970854205
72.5265107,23.0475378,Chandandwar Hospital,anchor,6970872877
72.6053086,22.988069,Jhanvi Fracture and Orthopaedic Hospital,anchor,6970893337
72.5948212,23.0488268,Chandramani Hospital,anchor,6970923829
72.5699088,23.0366258,Chaturbhai Mavawala Kidney Hospital and Laparoscopic,anchor,6970930475
72.6079452,22.9995355,Abhishek Hospital and Heart Centre,anchor,6970969227
72.535484,23.061092,Dr.Atul Shah Eye Hospital,anchor,6970981040
72.5663348,23.0165285,Gandhi Uro Care,anchor,6970983906
72.5941667,23.0222866,Dhwani Children Hospital,anchor,6970994343
72.5507015,23.059151,Umiya Surgical Hospital,anchor,6971005459
72.5626011,23.0183023,Sannidhya Hospital,anchor,6971013949
72.5905041,23.0013354,"Jankalyan Hospital, Ahmedabad",anchor,6971034528
72.5420791,23.0456264,Livewell Pain & Spine Hospital,anchor,6971034574
72.5189468,23.020171,Tulip Women's Hospital,anchor,6971932491
72.6090623,22.9997731,"Parimal Hospital, Ahmedabad",anchor,6971932493
72.5385243,23.0221879,Jyoti Maternity Hospital,anchor,6971932502
72.5554597,23.0328801,"Centre For Sight, Ahmedabad",anchor,6971932520
72.5589976,23.0121836,Jyoti Eye Hospital- Phaco Laser Centre,anchor,6971932525
72.5601871,23.0012243,Dr Ajay Praful Munshi Surgical Nursing Home,anchor,6971932530
72.595249,23.000933,Ratan Hospital,anchor,6971932535
72.6207709,23.0562136,"Pooja Hospital, Ahmedabad",anchor,6971932536
72.6028711,22.9830966,Shilp Orthopaedics And Trauma Centre,anchor,6971932541
72.6009165,22.9990899,Sardar Hosital,anchor,6971932551
72.6048513,23.0001972,Clear Vision Eye Hospital (Unit 3),anchor,6971932552
72.6038629,22.9961937,Kothari Onco Surgical Hospital,anchor,6971932554
72.611707,22.9914752,Nilkanth Hospital,anchor,6971932555
72.6125311,22.9906258,Ansuya General Hospital,anchor,6971932576
72.6109077,22.9979479,"Aastha Hospital, Ahmedabad",anchor,6971932581
72.6118974,22.9957122,Ahmedabad Medical Centre,anchor,6971973786
72.6037475,22.9968677,Dr Sunil Shah's Eye Hospital,anchor,6971973794
72.6119833,22.9947147,"Kamal Hospital, Ahmedabad",anchor,6971973795
72.6039098,22.9956326,Manoramya Children Hospital and Neonatal Centre,anchor,6971973800
72.6059188,22.9922814,Lavingia Orthopedic Hospital,anchor,6971973801
72.5518066,23.061941,"Nidhi Eye Hospital, Ahmedabad",anchor,6972590201
72.5501624,23.0437233,"Panchal Urology Centre, Ahmedabad",anchor,6972590220
72.5591853,23.0381253,Hari Urosurgical Hospital and Andrology Centre,anchor,6972590229
72.5598143,23.0522086,Usha - Deep Hospital and Nursing Home,anchor,6972590230
72.5485202,23.0086507,Bhavasar Eye Hospital and Maternity Nursing Home,anchor,6972590235
72.5397232,23.0559588,Devi Hospital,anchor,6972590251
72.5436849,23.0469757,Kaizen Hospital,anchor,6972590253
72.5338653,23.0462186,Milan Orthopaedic and Fracture Hospital,anchor,6972590270
72.53364,23.0544607,Aroma Womens Hospital,anchor,6972590271
72.533298,23.0470491,"Jain Hospital And Icu, Ahmedabad",anchor,6972590272
72.533251,23.0583588,Shreekrishna Hospital and Health Care Centre,anchor,6972590273
72.531753,23.0497418,P.N.Desai Eye Hospital,anchor,6972590275
72.5505593,23.0474249,"Jaydeep Hospital, Ahmedabad",anchor,6972590276
72.5338753,23.0500997,Sharda Eye Hospital Phaco And Laser Centre - Ahmedabad,anchor,6972590281
72.5419961,23.0456349,Shantnam Eye Care Hospital,anchor,6972590282
72.5345345,23.0463111,Smruti Fracture Orthopedic Hospital,anchor,6972590283
72.5418225,23.0455787,Rajvee Ortho Spine and Child Neuro Hospital,anchor,6972590284
72.5334294,23.0492285,Kidney And Urology Hospital,anchor,6972593085
72.5305755,23.0529941,"Neil Hospital, Ahmedabad",anchor,6972593091
72.5209102,23.0553553,Surveen Children Hospital And Vaccination Centre,anchor,6972593092
72.522199,23.0371812,Avataran Eye Hospital and Oculoplasty Clinic,anchor,6972593093
72.5271638,23.0311411,Akshay Heart and Medical Hospital,anchor,6972593094
72.5716656,23.0481314,"Aalok Hospital, Ahmedabad",anchor,6973933641
72.5720197,23.0542867,Dr. Manish Ravals Hospital,anchor,6973933650
72.5720304,23.0541596,Harsh Neurosurgical Hospital,anchor,6973933651
72.5720505,23.0542275,Bodycare Orthopaedic and Trauma Hospital,anchor,6973933652
72.5622028,23.0472984,"Shalin Eyecare Hospital, Ahmedabad",anchor,6973933657
72.5703634,23.0575728,"Devasya Kidney and Multi speciality Hospital, Ahmedabad",anchor,6973933658
72.5621612,23.0670629,Manshi Multispeciality Hospital,anchor,6973933659
72.5590418,23.0728484,"Vardan Eye Hospital, Ahmedabad",anchor,6973933665
72.5578952,23.0606194,"Kumud Heart Hospital and Medical Nursing Home, Ahmedabad",anchor,6973933666
72.5594985,23.0584236,Matruchhaya Children Hospital,anchor,6973933671
72.5500202,23.0643212,Neo Children Hospital,anchor,6973933676
72.4742572,23.0296366,"Aastha Orthopaedic Hospital, Ahmedabad",anchor,6973933681
72.5558715,23.0591455,Aarambh Heart and Medical Hospital,anchor,6973933682
72.5554725,23.0584884,Sanghvi Hospital,anchor,6973949891
72.5555255,23.0584551,Riddhi Maternity Home,anchor,6973949892
72.5476894,23.0538437,Lady Care Womens Hospital Child Care,anchor,6973949902
72.5562523,23.0585304,Ankur Superspeciality Hospital,anchor,6973949907
72.6008186,23.0549308,Jeel Children Hospital And Neonatal and Vaccination Center,anchor,6974296173
72.6389033,23.0127168,Divya Jeevan Medical Hospital,anchor,6974382565
72.5589064,23.0073805,Sanket Children Hospial,anchor,6974487736
72.5912216,23.0834799,Sivmm Kidney Hospital,anchor,6974503519
72.6013067,23.0527257,U. N.Mehta Institute Of Cardiology and Research Centre,anchor,6974509084
72.5959396,23.0544261,Shreeji Neonatal and Child Care,anchor,6974515481
72.5920974,23.0870576,Sharda Eye Hospital,anchor,6974530664
72.5264731,23.0133822,Urva Children Hospital and Neonatal Care,anchor,6974583170
72.5211865,23.0405047,Arthro Care Hospital,anchor,6974588378
72.5654282,23.0471775,Kheteswar Medical Educational and Research Centre Hospital,anchor,6974599099
72.5609992,23.0521364,Shail Eye Hospital,anchor,6974747456
72.5697197,23.052411,Shah Hospital - Vadaj,anchor,6974764947
72.5586167,23.0194415,"Sarthak Orthopaedic Hospital, Parimal Crosssing",anchor,6974774960
72.5922891,23.0872193,Dhruvi ENT Hospital,anchor,6974791050
72.5304092,23.0134142,Sarvamangal Women Hospital,anchor,6974835665
72.5660652,23.0259277,Stavya Spine Hospital and Research Institute,anchor,6974862427
72.6305442,23.0855562,"Kothari Hospital, Ahmedabad",anchor,6974913360
72.5352037,23.0604405,"Gurukrupa Hospital, Ahmedabad",anchor,6974916862
72.4775523,23.0283086,Laxmi Heart and Medical Hospital,anchor,6974947589
72.5298151,23.0162743,"Navkar Children Hospital, Ahmedabad",anchor,6974971519
72.5623262,23.0088754,Dr Chirag M Desai Eye Care,anchor,6975015289
72.6491037,23.2157197,Mukund Eye Hospital,anchor,6975031402
72.4717694,23.0315422,Bopal Multispeciality Hospital,anchor,6975089038
72.549178,23.0526874,Mother's Maternity and Nursing Home,anchor,6975130062
72.518924,23.0034068,Nanavati Maternity Hospital,anchor,6975165923
72.4773833,23.0283536,Vaishali Hospital,anchor,6975283854
72.6386267,23.0045749,"Gujarat Hospital, Ahmedabad",anchor,6975489450
72.6398085,23.0619138,Aadya Eye and Ent Hospital,anchor,6975498331
72.5725166,23.0217016,Karnavati Hospital Pvt. Ltd.,anchor,6975510816
72.6659513,23.1018186,"Gayathri Hospital, Ahmedabad",anchor,6975593887
72.5447845,23.0060128,"Dev Hospital, Vasna",anchor,6975593892
72.6416056,23.0518255,Rukshmani Surgical Hospital,anchor,6975608462
72.6442704,23.0379081,Sanket Children's Speciality Hospital,anchor,6975627959
72.6575299,22.999875,Hariom Multispeciality Hospital,anchor,6975629568
72.5912485,23.0838969,Neelkamal Hospital Pvt Ltd (Pooja Hospital),anchor,6975631040
72.6422949,23.0638912,"Trupti Hospital, Saijpur",anchor,6975633410
72.5623074,23.0454856,Deep Urosurgical Hospital,anchor,6975641054
72.5557816,23.0060905,Sannidhya Eye Hospital,anchor,6975643587
72.6398112,23.0604664,Karnavati Super Speciality Hospital,anchor,6975657008
72.5263832,23.0133562,Shyamal Orthopaedic Hospital,anchor,6975659494
72.5891134,23.0981234,Sanskar Heart Care And Medical Hospital,anchor,6975679362
72.5692952,23.0576184,Vadaj Orthopaedic Hospital,anchor,6975686200
72.5532469,23.0403424,Sahjanand Eye Care Hospital,anchor,6975737976
72.5553042,23.0328949,Maniar Hospital,anchor,6975737981
72.5505567,23.0021131,Manish Eye Hospital - Ahmedabad,anchor,6975823750
72.6544695,23.0763407,Parvati Jadav Hospital,anchor,6975823755
72.622926,23.0302148,"Matru Hospital, Ahmedabad",anchor,6975839535
72.546536,23.0006799,"Matoshree Hospital, Ahmedabad",anchor,6975842889
72.5290078,23.0371183,Aashwi E.N.T.Hospital,anchor,6975854570
72.5980747,23.1067781,Pushpa Children Hospital and Neonatal Care,anchor,6975854571
72.5556147,23.0469542,Aarogyam Speciality Hospital,anchor,6975865066
72.5591303,23.0713999,Trisha Trauma Centre and Icu,anchor,6975865077
72.6195304,22.979135,Shreejee Hospital,anchor,6975865082
72.5245995,23.0130681,Sanjivani Maternity,anchor,6975868087
72.5681533,23.0162681,Dr. Devendra Kanaiyalal Hospital and Nursing Home,anchor,6975868149
72.5740326,23.079662,Harsiddh Hospital,anchor,6975868154
72.5638162,23.0152127,Gheewala Hospital,anchor,6975868159
72.533758,23.046184,Rushabh Uro Hospital,anchor,6975868164
72.5360284,23.0594844,Vallabh Surgical Hospital,anchor,6975868185
72.6097913,22.9980056,Dr. Shurti Ent Hospital,anchor,6975868232
72.6291548,22.9933987,Babycare Children Hospital and Neonatal Centre,anchor,6975868242
72.6309961,23.0388744,Venkaria Ortho Hospital,anchor,6975896997
72.5568886,23.0182599,Diva Eye Institute Hospital,anchor,6976062877
72.5584531,23.0186294,Khush Eye Hospital,anchor,6976100898
72.5233135,23.0250378,Sangini Hospital,anchor,6976102868
72.5431028,23.0694294,Aneri Children Hospital,anchor,6976113859
72.5911814,23.0838463,Divya Jyot Eye Hospital,anchor,6976113864
72.5498479,23.0241454,Eye Care Hospital Pvt. Ltd.,anchor,6976113865
72.5640978,23.0519939,Raj Ent Hospital,anchor,6976120285
72.5616597,23.0461976,Valu Hospital,anchor,6976120295
72.5815442,23.1204422,Satyamev Hospital,anchor,6976136403
72.5374903,23.0047117,Polio Foundation,anchor,6976136409
72.5567982,23.0070978,Archit Orthopaedic Hospital,anchor,6976136430
72.6422057,23.063798,"Saraswati Eye Hospital, Ahmedabad",anchor,6976489668
72.5413272,23.0218028,"Bavishi Eye Hospital, Ahmedabad",anchor,6976489889
72.6591285,23.000075,"Shreedhar Hospital, Ahmedabad",anchor,6976523987
72.560572,23.0176604,Aash Arthoscopy Centre,anchor,6977128103
72.6359045,22.9997985,"Ashirwad Surgical Hospital, C.T.M",anchor,6977128122
72.5319609,23.0256722,Sushri Jasumatiben Shantilal Surti Charitable General Hospital,anchor,6977128145
72.5988331,23.0095864,Dr. Shailesh Shah Surgical Hospital and End. Clinic,anchor,6977175156
72.5582439,23.0471713,"Vrundavan Hospital, Ahmedabad",anchor,6977209293
72.5956231,23.0538573,Arihant Heart And Medical Hospital,anchor,6977547385
72.5626293,23.0109689,"Shaurya Hospital, Ahmedabad",anchor,6977560828
72.595426,23.0539511,Sparsh Netralaya,anchor,6977562492
72.5901327,23.0048092,"Parth Eye Hospital, Ahmedabad",anchor,6977562756
72.67597,23.0395285,"Swastik Hospital, Ahmedabad",anchor,6977588678
72.5457716,23.0129094,Navkar Hospital,anchor,6977637653
72.5697277,23.1029936,"Pushpam Hospital, Ahmedabad",anchor,6977866283
72.583823,23.0668688,"Swari Ent Hospital, Ahmedabad",anchor,6977867216
72.4414712,23.0239294,Krishna Shalby Hospital,anchor,6977883522
72.5335769,23.0063905,"Sagar Hospital, Ahmedabad",anchor,6977886470
72.5268432,23.0259215,Chhabra Eye Hospital,anchor,6977886679
72.5337875,23.0482795,"Vatsalya Children Hospital, Ahmedabad",anchor,6977959988
72.5275755,23.0255723,Aastha Eye Hospital,anchor,6977983456
72.524609,23.0827619,Gmers Medical College Hospital,anchor,6977984314
72.5594562,23.0354102,"Super Surgical Hospital, Ahmedabad",anchor,6978013050
72.5631899,23.0672085,Krishna Hospital and ICCU,anchor,6978023117
72.5253627,23.0137315,Satellite Orthopaedic Hospital And Research Centre Pvt Ltd,anchor,6978283068
72.5658171,23.0070435,Chirayu Orthopaedic and Spine Hospital,anchor,6978371845
72.5777945,23.0400753,Adwait Ent Hospital,anchor,6978383380
72.5637853,23.013039,"Long Life Hospital, Ahmedabad",anchor,6978384976
72.5313695,23.0239912,"Mamta Children Hospital, Ahmedabad",anchor,6978398222
72.57069,23.0373342,Shantilal Parikh Hospital and Check Up Clinic,anchor,6978561277
72.566613,23.0671493,Dr.Anil V.Patel Eye Hospital,anchor,6978571652
72.6049981,23.0442336,Sharda Clinic and Hospital,anchor,6978571769
72.5606538,23.0188639,Dr.Joshi Maternity And Gynec Hospital,anchor,6978625512
72.5260802,23.0263782,Dr.Nagoris Institute Hospital,anchor,6978633948
72.5917406,23.0017415,Dr.Soneji Hospital,anchor,6978658096
72.5907777,23.0557144,Eye Research Centre And Retina Foundation,anchor,6978692867
72.5719513,23.0232494,Dr. Manoj Tank E.N.T. Hospital,anchor,6978708394
72.6573488,23.0496493,"Prasad Hospital, Ahmedabad",anchor,6978708767
72.6450951,23.0099185,Rangam Multispeciality Hospital,anchor,6978775436
72.5629491,23.0662892,Astha Orthopedic and Spine Hospital,anchor,6978935663
72.5849734,23.1105464,Amrut Arogyadham Medical Hospital,anchor,6978978091
72.5178203,23.0125983,Rushabh Medi-Surge Hospital Pvt Ltd,anchor,6978978566
72.6002379,23.0520957,Jay Orthopaedic Hospital,anchor,6978995190
72.5621706,23.0411786,Pramukh Neurosurgical Hosptial,anchor,6978995195
72.5905082,23.0042895,"Trupti Heart and Medical Hospital, Ahmedabad",anchor,6979071770
72.5624844,23.0472453,Aash Surgical Hospital,anchor,6979129057
72.5465682,23.010948,Kanchi Orthopaedic Hospital,anchor,6979134750
72.633166,23.2045854,Shashvat Hospital,anchor,6979161794
72.6285593,23.0993792,"Kanoria Hospital And Research Centre, Gandhinagar",anchor,6979173508
72.5355001,23.0603035,Shree Mahavir Mutlispeciality Hospital and Icu,anchor,6979198636
72.5666606,23.0803277,Jainee Surgical Hospital,anchor,6979224512
72.5390634,23.0767892,Shri Rang Hospitaland Research Centre,anchor,6979298469
72.5659271,23.0402678,Brain and Spine Hospital,anchor,6979320336
72.5545666,23.0099407,Bodyline Hospitals,anchor,6979326720
72.6429212,23.0672116,"Siddhi Hospital, Ahmedabad",anchor,6979370261
72.5306962,23.0620742,Om Children Hospital,anchor,6979376698
72.532901,23.0057153,Samkit Hospital Icu and Iccu,anchor,6979376705
72.5667264,23.0169692,Vrundavan Children Hospital,anchor,6979376757
72.6383065,23.0392262,"Netra Raksha Hospital, Thakkarbapa Nagar",anchor,6979376762
72.634133,23.0567152,Shivam Heart and Medical Hospital,anchor,6979376763
72.5332966,23.0583008,"Shashwat Hospital and Research Center, Ahmedabad",anchor,6979404752
72.5520748,23.0043253,"Aditya Hospital, Ahmedabad",anchor,6979483953
72.5638765,23.0152967,Krupanidhi Hospital,anchor,6979514449
72.5348282,23.0499602,"Aditya Eye Hospital, Ahmedabad",anchor,6979534905
72.611884,22.978619,"Joitiba General Hospital, Ahmedabad",anchor,6979537048
72.6321253,22.9926876,Anoop Children Hospital,anchor,6979632808
72.5337466,23.0462322,Aayush Surgical Hospital,anchor,6979632818
72.5368439,23.0731297,"J J Hospital, Ahmedabad",anchor,6979632882
72.5539094,23.0176617,Dr. Rajiv Thakores Hospital,anchor,6979632888
72.5493899,23.0561654,Chikhalkar Hospital and Iccu,anchor,6979940473
72.5595984,23.0379772,The Holistic Medical Centre Ayulink Ayurveda Hospital,anchor,6979940478
72.632124,22.9926333,Aniket Ent Hospital,anchor,6979967498
72.5896941,23.082678,Amruta Hospital and Heart Centre,anchor,6980252878
72.6439887,23.0381006,Hari Krishna Uro Surgical Hospital,anchor,6980252896
72.5315224,23.0632822,Aditya Multi-Speciality Hospital,anchor,6980252908
72.6388442,23.0208659,Vatsalya Neonatal and Children Hospital,anchor,6980792037
72.5125068,23.0745277,Motherhood Womens and Child Care Hospital,anchor,6980840228
72.595257,23.0024575,Arpan Orthopedic and Trauma Hospital,anchor,6980978805
72.5458769,23.0199254,Jarmarwala Hospital,anchor,6981004951
72.5806028,23.0098432,Pearl Eye Hospital,anchor,6981152500
72.6149404,23.0310362,Shushilaben Neonatal And Child Care Centre,anchor,6981256117
72.5914161,23.0844866,Shree Aman Hospital,anchor,6981277613
72.5286249,23.0460902,Rainbow Super Speciality Children's Hospital,anchor,6981405297
72.5889122,23.0837834,"Parth Hospital, Ahmedabad",anchor,6981412703
72.5647576,23.0602795,"Gayatri Heart And Medical Hospital, Bhimjipura",anchor,6981446717
72.5563677,23.0066966,Sanghavi Hospital Pvt. Ltd.,anchor,6981455290
72.6141009,22.9947616,Pallav J M Desai Memorial Hospital (Better Health Pvt.Ltd.),anchor,6981476944
72.5544217,23.0029958,"Parth Surgical Hospital, Ahmedabad",anchor,6981478241
72.6132895,23.1924861,Sanjivani Heart And Medical Hospital - Gandhinagar,anchor,6981501666
72.5218208,23.0277853,"Jalaram Hospital, Ahmedabad",anchor,6981550649
72.5709508,23.0464247,Kruti Orthopedic Hospital,anchor,6981560332
72.5964291,23.0547211,Jariwala Women's Hospital,anchor,6981636783
72.6334758,23.0031785,Rukshmani Medical Hospital,anchor,6981636786
72.5227287,23.0705004,HCG Cancer Centre,anchor,6981694438
72.6029496,23.0544878,Zeal Maternity And Nursing Home,anchor,6981717526
72.6021999,22.980618,Vraj Hospital and Heart Care Center,anchor,6981777270
72.51789,23.0126292,Sahjanand Orthopaedic Hospital,anchor,6981793062
72.5592698,23.0421276,Jaju Plastic Surgery Center,anchor,6981802923
72.6074664,22.9947925,Raghuvir Eye Hospital,anchor,6981810684
72.5838341,23.066349,Shachi Women's Hospital,anchor,6981819871
72.6251891,22.9989479,"Palak Hospital, Ahmedabad",anchor,6981883350
72.6059926,23.0487768,Anand Children Hospital Neonatal Intensive Care,anchor,6981886630
72.5712056,23.0477933,Patel E.N.T Hospital,anchor,6981922067
72.5260091,23.0318187,Rosemaarry Womens Hospital,anchor,6981937281
72.5903244,23.0837698,Sanjivan Heart and Medical Hospital,anchor,6981956892
72.5360379,23.0592152,Sainath Orhtopaedic Hospital,anchor,6981966028
72.6445547,23.0380179,Sardar Hospital,anchor,6981981192
72.5615551,23.0200612,Shree Harikrupa Hospital,anchor,6981981259
72.5642668,23.0202065,Amardeep Multispeciality Children Hospital,anchor,6981982797
72.5642949,23.0288615,HCG Multi Specialty Hospital,anchor,6981984553
72.6068804,22.9949308,Palak Eye Hospital,anchor,6981984751
72.6197255,22.9994812,Rukshmani Government Hospital,anchor,6981988165
72.6468533,23.0504316,Rugved Multispeciality Hospital,anchor,6981988318
72.6079211,22.9978986,Ashirwad Children and Eye Hospital,anchor,6981998855
72.6391487,23.0237122,Ayushman Medical Hospital and Dignosis Center,anchor,6982001505
72.6098563,22.9980843,"Ravi Surgical Hospital, Ahmedabad",anchor,6982001606
72.435679,23.0347264,College of Dental Sciences and Research Hospital,anchor,6982006635
72.625165,22.9981609,Shrreeji Surgical Hospital,anchor,6982007106
72.5175279,23.002323,Shreyas Speciality Hospital,anchor,6982014039
72.5467211,23.0021551,"Rugveda Practur and Orthopaedic Hospital, Ahmedabad",anchor,6982024115
72.594506,23.049363,Kalptaru Hospital,anchor,6982028883
72.5696392,23.0364864,Sukhmani Hospital / Saviour Annexe Hospital,anchor,6982031216
72.6429145,23.0540923,"Setu Surgical Hospital, Ahmedabad",anchor,6982046922
72.5701462,23.0578122,Auro Ent Hospital,anchor,6982051126
72.5189053,23.0034741,"Swastik Surgical Hospital And Dental Clinic, Ahmedabad",anchor,6982060211
72.5615689,23.0459888,"Sanjivani Eye Hospital and Phaco Centre, Ahmedabad",anchor,6982070577
72.5356453,23.0595717,"Sanjeevani Hospital, Ahmedabad",anchor,6982092102
72.5643083,23.0288813,Hcg Medi-Surge Hospitals Private Limited,anchor,6982092139
72.5161432,23.0389016,The Vitreoretina Clinic and Eye Hospital,anchor,6982092151
72.5256523,22.9931604,Mahin Lifecare Services Pvt.Ltd,anchor,6982092157
72.5590798,23.0728893,Jay Umiya Hospital,anchor,6982092173
72.6388644,23.0395124,Aarna Medical Hospital,anchor,6982092220
72.5958726,23.0544298,Akshar Krupa Hospital,anchor,6982092221
72.5591692,23.0729002,Siddhi Heart and Medical Hospital,anchor,6982092222
72.5273097,23.0369328,"Ashish Orthopaedic Hospital, Ahmedabad",anchor,6982092223
72.5701541,23.0578196,Sanjivani Heart and Medical Hospital (Ahmedabad),anchor,6982092239
72.5174716,23.036039,Raksha Hospital Pvt Ltd,anchor,6982197103
72.6028262,23.0526578,B.J. Medical College Hospital,anchor,6982197104
72.6080297,23.0500108,Government Spine Institute Hospital,anchor,6982197122
72.5997604,22.9798932,"Parth Eye Hospital, Isanpur",anchor,6982197139
72.595823,23.0545187,Austmangal Surgical Hospital,anchor,6982197140
72.643695,23.0626344,Rudraksh Hospital,anchor,6982197141
72.5449569,23.0246015,Babul E.N.T. Hospital,anchor,6982527814
72.6121093,22.9956523,Dr Dipak C Shah E N T Hospital,anchor,6982581431
72.5663294,23.0476847,"Adarsh Hospital, Ahmedabad",anchor,6982581436
72.5971761,22.9834237,Swapn Healthcare Hospital Pvt. Ltd,anchor,6982731905
72.6428729,23.0543583,"Navjivan Maternity and Orthopaedic Hospital, Ahmedabad",anchor,6983272102
72.6355197,22.9979961,Nadkarni's 21St Century Hospitals Pvt Ltd,anchor,6983317583
72.5624067,23.0463124,J.Chirag Surgical Hospital,anchor,6983409961
72.5380576,23.0812863,Shri Yogeshwar General Hospital,anchor,6983440879
72.5599363,23.0059807,Navkalp Children Hospital,anchor,6983477457
72.5861375,23.0272274,Memon Ent Hospital,anchor,6983477494
72.5372905,23.0592497,"Shaishav Children Hospital, Ahmedabad",anchor,6983511178
72.6331285,23.0388164,Shiv Jyoti Eye Hospital,anchor,6983623764
72.5621974,23.010174,Dr. Atul H Kansara `S (E.N.T) Hospital,anchor,6983623776
72.5481668,23.0016415,Aneri Surgical and Neuro Surgical Hospital,anchor,6983629350
72.4779037,23.0288344,Bopal Eye Care Centre,anchor,6983631097
72.5378671,23.0590239,Devam Orthopaedic Hospital,anchor,6983633938
72.5964371,23.0539073,Reshambhai Fertility Hospital,anchor,6983634254
72.6299769,23.2127432,"Gayatri Hospital, Gandhinagar",anchor,6983634842
72.5987479,22.9809304,"Dr, Nayan V Shah Surgical Hospital",anchor,6983651326
72.5581983,23.0405319,"Samved Orthopaedic Hospital, Ahmedabad",anchor,6983683410
72.603419,22.9872011,Shlok Medical and Heart Hospital,anchor,6983684511
72.5543117,23.0403048,Cheers Interventional Pain Management Hospital,anchor,6983723687
72.6016447,23.0482079,"Narang Eye Hospital, Munohwa By Pass Chowk",anchor,6983724286
72.595717,23.0029007,Vishwa Medical And Heart Hospital,anchor,6983778648
72.6183012,23.0017465,"Vivek Children Hospital, Khokhara",anchor,6986103047
72.5465441,23.0100246,Prabhujyot Inst. Of G.I. Endoscopy and Laproscop,anchor,6986103052
72.5325832,23.0066954,Vatsalya Gynec Hospital,anchor,6986256250
72.6527891,23.0730767,Vikas Medical and Heart Hospital,anchor,6986256251
72.5857745,23.167703,Government hospital Adalaj,anchor,6986279344
72.6752123,22.89509,Dhawal General Hospital,anchor,6986279378
72.5304455,23.0638572,Tirtham Surgical and Laparoscopic Centre,anchor,6986279383
72.5670958,23.0127576,Peshant House Hospital,anchor,6986285730
72.5436446,23.0209844,Jagdish Orthopadic Hospital,anchor,6986434686
72.5598545,23.0402147,Vedanta Institute Of Medical Sciences Hospital,anchor,6986477087
72.5045286,23.1224896,Lions Karnavati Shantaben Vishnubhai Patel Eye Hospital,anchor,6986591574
72.5838912,23.1146062,Shree Sai Children Hospital,anchor,6986602457
72.4773597,23.0269892,Devasya Superspeciality Kidney Institute and Research Centre,anchor,6986602477
72.611577,22.9873418,"Ashirwad Hospital, Ahmedabad",anchor,6986602483
72.6213037,23.0809819,"Shivam Medical Hospital, Sardar Nagar",anchor,6986605704
72.6247528,22.9985353,Yogiji Medical Hospital,anchor,6986605747
72.6502608,23.0436594,Aagman Maternity and Gynec Hospital,anchor,6986605752
72.5305813,23.062087,Netram Care Eye Hospital,anchor,6986605757
72.5697332,23.0226864,Jaliyan Orthopaedic Hospital,anchor,6986605760
72.5753262,23.0790988,Tejal Eye Hospital,anchor,6986619078
72.6440035,23.0377884,Ano Care Hospital,anchor,6986625078
72.5629216,23.0663546,Dr.Saurabh Shah Orthopaedic Hospital,anchor,6986625079
72.5964358,23.054805,"Adinath Hospital, Ahmedabad",anchor,6986736364
72.5482339,23.0022835,"Shreyas Orthopedic Hospital, Vasna",anchor,6986966093
72.5362967,23.0072423,Chintan Orthopaedic Hospital,anchor,6987068296
72.6426671,23.0650523,Akshar Eye Hospital,anchor,6987246245
72.5472508,23.0249533,Dr. Trivedis Arthroscopy Clinic And Hospital,anchor,6987467519
72.5189187,23.0034513,"Spandan Hospital, Ahmedabad",anchor,6987525729
72.6491044,23.0114874,Kuvar Ba General Hospital,anchor,6987724528
72.5679736,23.0804356,Vinayak Children Hospital-Ahmedabad,anchor,6987724550
72.6016849,23.0489292,Rachana Hospital,anchor,6987886544
72.6583895,23.0405269,Kalrav Maternity Hospital and Sonography Centre,anchor,6988042721
72.5911881,23.0839074,Aashirwad Surgical Hospital and Nursing Home,anchor,6988048676
72.5479455,23.0016292,Dr. Sejal Desai Eye Hospital,anchor,6988066542
72.5253251,23.0220336,Vishwa Ent Hospital,anchor,6988267618
72.5629203,23.014419,Navkar Plastic Surgery Hospital,anchor,6988306349
72.6562531,22.996806,Shukan Maternity Home,anchor,6988322949
72.6338285,22.9914333,Rajni Women's Hospital and Research Centre,anchor,6988340023
72.5303878,23.0136587,Gujrat Child Care Hospital,anchor,6988349685
72.5329319,23.0058276,"Jain Hospital and Icu, Jivraj Park",anchor,6988439005
72.5638269,23.0152707,Saraiya Plastic Surgery And Burns Hospital,anchor,6988490440
72.5622276,23.0090414,"Sushrut Hospital, Ahmedabad",anchor,6988491227
72.5435185,23.0213053,Rushil Cancer And Endocrine Care,anchor,6988494095
72.5572944,23.0193453,Shyam Urological Hospital,anchor,6988534634
72.6426845,23.064969,Smt Shobhadevi Ent Hospital,anchor,6988536883
72.5362779,23.0185504,Gujarat Institute Of Psnchological Sciences Hospit,anchor,6988713370
72.5243381,23.0157929,Abhisek Maternity and Nursing Home,anchor,6988713380
72.5667813,23.0168791,Nishant E N T Hospital,anchor,6989050324
72.5576954,23.0175456,"Siddhivinayak Hospital, Ahmedabad",anchor,6989112022
72.5377853,23.0626813,Sitababa Hospital,anchor,6989122223
72.5904116,23.0054634,Smruti Hospital,anchor,6989132421
72.6105885,22.979024,Raj Maternity Home,anchor,6989164263
72.5969093,23.0552899,The Gujarat Research and Medical Institute ( Rajasthan Hospital),anchor,6989177887
72.5551459,23.0030081,Clear Vision Eye Hospital( Unit 1),anchor,6989177897
72.469625,23.0166336,Sannidhya Hospital,anchor,6989202574
72.5689566,23.040701,Dr J J Vora Memorial General Hospital,anchor,6989221492
72.6064526,23.0041352,"Siddhi Vinayak Hospital, Ahmedabad",anchor,6990257834
72.6406256,23.2149386,"Navjivan Hospital, Gandhinagar",anchor,6990348094
72.5428694,23.0696614,Aastha Eye Care Centre,anchor,6990595051
72.635415,23.0395927,Raghukul Ortho Hospital,anchor,6990600365
72.6388724,23.0129625,Rajput Eye Hospital,anchor,6990678339
72.6183441,23.0028217,Het Childcare Hospital,anchor,6990705581
72.6284051,23.0328727,Madhuram Surgical Hospital,anchor,6990726309
72.6449161,23.0147326,Dhwani General Hospital Nursing Home and Maternity Home,anchor,6990743054
72.5822818,23.1154284,"Shreyas Orthopedic Hospital, Ahmedabad",anchor,6990752682
72.6062142,23.0487456,Sanjeevani Fracture andAccident Hospital,anchor,6990776817
72.628334,23.0869528,Gujarat Research And Medical Institute Hospital,anchor,6990786215
72.6412113,23.0633896,Chirayu Surgical Hospital,anchor,6990824177
72.5572461,23.0193008,Netralaya-The Eye Associates,anchor,6990838192
72.5629981,23.0671591,Gayatri Childrens Hospital,anchor,6990990485
72.5952208,23.0031649,Neha Children Hospitals and Neonatal Centre,anchor,6991109755
72.5659411,23.0396353,Kavit Urosurgical Hospital,anchor,6991207885
72.5357951,23.0598028,Auroma Ent Hospital,anchor,6991208200
72.4732058,22.9870335,Sahyog General Hospital and Nursing Home,anchor,6991241711
72.6367199,23.0048808,Jayshri Medical Hospital,anchor,6991261574
72.6041847,23.0489175,Radha Krishna Hospital,anchor,6991317932
72.5586636,23.0473058,Bhadra Clinic Hospital,anchor,6993387967
72.6068388,22.9970288,V and M Orthopaedic Centre,anchor,6993472071
72.560481,23.0519251,"Anand Eye Hospital,(Dr. Rohit Desai)",anchor,6993703101
72.5714269,23.0187158,Smt.NHL Municipal Medical College Hospital,anchor,6993868923
72.5641722,23.0520284,Killol Children Hospital,anchor,6993868949
72.5665225,23.016489,Gujrat Diagnostic Center and Pathology Laboratory,anchor,6993882537
72.5988793,23.0094926,Giriraj Orthopaedic Hospital,anchor,6993884689
72.5468244,22.9998935,BSNL Exchange,anchor,6993902494
72.5454128,23.027216,Amdawad Eye Laser Hospitals Pvt Ltd,anchor,6993975134
72.5475056,23.0265769,Government Polytechnic,anchor,7139941466
72.5191879,22.9928112,Amena Khatun General Hospital,anchor,7157714219
72.627894,23.201649,Government Hospital Sector-3A,anchor,7165606654
72.5244892,23.0265633,Iscon Emporio,anchor,7418072411
72.593685,23.019646,Shree Umiya Multi Speciality Hospital,anchor,7862753690
72.585958,22.999361,Vahedi Hospital,anchor,7862753691
72.5912646,22.9634073,Jankalyan Janaseva Hospital,anchor,7862753693
72.609198,22.997277,Shruti ENT Hospital,anchor,7862753694
72.610435,22.997459,Child Care Surgical Hospital,anchor,7862753697
72.5946245,23.0234972,Mamta Maternity Home,anchor,7862753698
72.597401,23.018949,LM Referral Hospital,anchor,7862753699
72.5900772,23.0210847,Mysorewala Surgical Hospital,anchor,7862753700
72.611857,22.988104,"Avishkar Multi Speciality, ICU and Trauma Centre",anchor,7862753701
72.596633,23.028639,Shree Jee Eye and Orthopedic Hospital,anchor,7862753702
72.6003159,22.9995851,Chanchalba Maternity Hospital,anchor,7862753703
72.600585,22.998028,Dr. Ramanlal Hospital,anchor,7862753704
72.6063718,22.9970061,Kilu ENT Hospital,anchor,7862753706
72.595118,23.005749,Bhanu Jit Maternity and Nursing Home,anchor,7862753709
72.591737,23.02645,Chhapan Hospital,anchor,7862753714
72.5893488,22.9666916,Shree Shakti General Hospital,anchor,7862753715
72.607654,23.002052,Artificial Eye Surgery,anchor,7862753717
72.5933157,23.029419,Pinakin Dalal Hospital,anchor,7862753719
72.588856,22.981501,Maryam Hospital,anchor,7862753720
72.616878,22.984428,Gurunanak Hospital,anchor,7862753721
72.5884667,22.9947749,Hazrat Amina BIbi Hospital,anchor,7862753722
72.583296,23.006527,Sambhav General Hospital,anchor,7862753724
72.608195,23.000266,Kushi Women Hospital,anchor,7862753726
72.601663,22.9969506,Mithakhali Stavya Hospital,anchor,7862753727
72.5903719,22.9646691,Narol ICU and Multi Speciality Hospital,anchor,7862753729
72.593349,23.019026,Jatan Children Hospital,anchor,7862753732
72.607322,22.993645,Little Flower Neonatal and Pediatric Super Speciality Hospital,anchor,7862753733
72.608657,22.996403,Parikh Orthopedic Hospital,anchor,7862753734
72.597732,23.023421,Divya Children's Hospital,anchor,7862753735
72.598982,23.024842,Chinubhai Baronet Hospital,anchor,7862753736
72.596416,23.003436,Navdeep Hospital,anchor,7862753737
72.587951,23.012988,Hindu Muslim Ekta Trust Hospital,anchor,7862753738
72.592461,23.029011,Dr. Tanumati Shah Hospital,anchor,7862753739
72.585876,23.009168,Munsipal Hospital,anchor,7862753740
72.5934357,22.9646606,Mediclaim Hospital,anchor,7862753741
72.6075168,22.9949326,Maya Maternity Hospital,anchor,7862753742
72.587351,23.015985,Chhipa Welfare Trust Hospital,anchor,7862753743
72.5908296,23.0151021,TB Hospital,anchor,7862753744
72.587214,23.02691,Jay Orthopedic Hospital,anchor,7862753745
72.609335,22.997027,Sharda Surgical Hospital,anchor,7862753749
72.5919014,23.0259793,Sheth Jamnabhai Bhagubhai Trust,anchor,7862753750
72.6037424,23.0003225,Shivam Children Hospital and Pediatric Critical Care Centre,anchor,7862753751
72.5905625,23.0293947,Parijat Children Hospital,anchor,7862753752
72.5917151,23.0058864,Aaditya Spine Hospital,anchor,7862753753
72.5877721,23.0012666,Safal Children Hospital,anchor,7862753757
72.590532,22.9644685,Janani Women and Children Hospital,anchor,7862753758
72.608487,23.000081,Devam Hospital,anchor,7862753759
72.612253,22.954141,Matru Chhaya Hospital,anchor,7863727736
72.600519,22.983088,Remedy Hospital,anchor,7863727738
72.624931,22.966305,Sparsh Multi Speciality Hospital,anchor,7863727740
72.6010063,22.9768837,Dirgayu Orthopedic Hospital,anchor,7863727741
72.611161,22.981475,Suman Hospital,anchor,7863727742
72.615888,22.953285,Kashiba General Hospital,anchor,7863727743
72.617867,22.967894,Vimala Hospital,anchor,7863727745
72.604727,22.971831,Doctor Bhatt's Hospital,anchor,7863727746
72.5931204,22.9704828,Medicure Hospital,anchor,7863727747
72.592925,22.977063,Ratan Hospital,anchor,7863727748
72.611594,22.974308,Smruti Multi Speciality Hospital,anchor,7863727751
72.6244409,22.9515073,Harsh Hospital,anchor,7863727754
72.5983418,22.979498,Shakur Children Hospital,anchor,7863727755
72.6159949,22.9664477,Abhinav Hospital,anchor,7863727756
72.5760578,22.9339127,Lambha Skin Hospital,anchor,7863727757
72.601692,22.975087,Chiranjeevi Hospital,anchor,7863727759
72.601175,22.979475,Ashirvad Hospital,anchor,7863727760
72.61044,22.963029,Roshan General Hospital,anchor,7863727761
72.6028164,22.9831626,Jyoti Eye Care Hospital,anchor,7863727762
72.6024947,22.9857798,Dr. Pandya's Maternity Nursing Home,anchor,7863727763
72.610165,22.978896,Eye Sight Vision Care Hospital,anchor,7863727766
72.5969418,22.9797902,New Shraddha Hospital,anchor,7863727767
72.606863,22.981784,Vedanth Medical Hospital,anchor,7863727768
72.614834,22.93826,Krishna General Hospital,anchor,7863727771
72.611169,22.978245,Balaji Speciality Hospital,anchor,7863727772
72.6149817,22.9382867,Pramukh Hospital and Research Centre,anchor,7863727774
72.598012,22.948094,Indira Women's Care and Multi Speciality Hospital,anchor,7863727775
72.6032425,22.9820852,Dirdhau Hospital,anchor,7863727777
72.618997,22.958951,U.N. Mehta Eye Hospital,anchor,7863727778
72.5872561,22.972368,Dr. K.B. Bhagatariya Hospital,anchor,7863727780
72.608201,22.9605,Aman Multi Speciality Hospital,anchor,7863727781
72.6097705,22.9787938,Apoorva Women's Hospital,anchor,7863727782
72.595008,22.98027,Shraddha Hospital,anchor,7863727783
72.608642,22.978672,Clear Vision Eye Hospital,anchor,7863727784
72.610699,22.98106,Akshar Hospital,anchor,7863727785
72.6023636,22.9811997,Shree Nathe Hospital,anchor,7863727786
72.602266,22.974803,Prerana Gynec and Maternity Hospital,anchor,7863727787
72.6026036,22.9840852,Dr. Shah's Maternity and Nursing Home,anchor,7863727788
72.6029,22.981784,Shreeji Children's Hospital,anchor,7863727790
72.598519,22.9810392,Shraddha Orthopaedic Hospital,anchor,7863727792
72.611815,22.957118,Safal Hospital,anchor,7863727793
72.6022206,22.9757579,Shraddha Children Hospital,anchor,7863727794
72.6001796,22.983673,Aatman Hospital,anchor,7863727795
72.6117361,22.9598509,Swami Sadanand Hospital,anchor,7863727796
72.612341,22.955252,Chiranjeev Children Hospital,anchor,7863727797
72.6009535,22.9769658,Anand Children Hospital,anchor,7863727799
72.612777,22.953387,Shri Ji Kripa Prasuti Griha Hospital,anchor,7863727800
72.6222017,23.0582776,Rameshwar Multi Speciality Hospital,anchor,7864058597
72.596062,23.096892,Sevak Maternity & Surgical Hospital,anchor,7864058598
72.581545,23.114943,Navjivan Hospital,anchor,7864058601
72.5798849,23.0376047,Munciapl Prasuti Hospital,anchor,7864058603
72.578769,23.114332,Pushp Hospital and Maternity Home,anchor,7864058605
72.582052,23.122105,Devarshi Super Speciality Hospital,anchor,7864058606
72.576487,23.038118,Adhvait Psychiatry Hospital,anchor,7864058608
72.5794455,22.996289,Faiz Hospital,anchor,7864058609
72.5781671,23.0360108,Shahpur Medical Hospital,anchor,7864058610
72.5815979,23.045083,Krishna Maternity and Nursing Home,anchor,7864058612
72.590307,23.08992,Rajdip Children Hospital,anchor,7864058613
72.5847083,23.1112092,Navodaya Hospital for Neonates and Children,anchor,7864058615
72.589815,23.053458,ESIC Hospital,anchor,7864058616
72.583096,23.113705,Chandkheda Orthopedic & Surgical Hospital,anchor,7864058617
72.5958301,23.0958571,Parimal Hospital,anchor,7864058619
72.582827,23.114583,Shivam Surgical and Dental Hospital,anchor,7864058621
72.5795035,23.0403546,Maheshwari Children Hospital,anchor,7864058623
72.581574,23.048956,Sagar Multi Speciality Hospital,anchor,7864058625
72.61811,23.059688,Kamal Hospital,anchor,7864058626
72.5785891,22.9966232,Mumtaz Hospital,anchor,7864058627
72.6082995,23.0465734,Gcs Hospital,anchor,7864058628
72.5774069,23.032378,Shreeja Krupa Children Hospital,anchor,7864058629
72.577351,23.032023,Shraddha Multi Speciality Hospital,anchor,7864058632
72.576397,23.037853,Neuron Neuro Surgical Hospital,anchor,7864058634
72.601892,23.058909,Military Hospital,anchor,7864058635
72.5777147,23.0402323,Krishna Hospital,anchor,7864058636
72.580661,23.114667,Ansh Multispeciality Hospital,anchor,7864058637
72.6208766,23.0547951,Sonal Maternity Hospital,anchor,7864058638
72.5834513,23.1125242,Sentara Multispeciality Hospital,anchor,7864058639
72.5951832,23.0347002,Lokhandwala General Hospital,anchor,7864058641
72.588423,23.035637,Bachardas Lashkari Hospital,anchor,7864058642
72.583182,23.113388,Rhythm Heart and Medical Hospital,anchor,7864058644
72.6025578,23.1044464,Lotus Multispeciality Hospital,anchor,7864058646
72.590092,23.055335,Gujarat State Police Welfare Hospital,anchor,7864058651
72.620709,23.056258,Ashirwad Maternity and Nursing Home,anchor,7864058652
72.579059,22.995486,New Life Hospital,anchor,7864058653
72.596142,23.051416,Puneet Maternity Nursing Home,anchor,7864058655
72.591111,23.092043,Indus Hospital,anchor,7864058656
72.576899,23.001026,Chepirog Hospital,anchor,7864058657
72.5953342,23.0521027,Jain Hospital,anchor,7864058658
72.589386,23.045993,Clear Vision Eye Hospital,anchor,7864058660
72.5976157,23.1047391,Param Multispeciality Hospital,anchor,7864058661
72.5778602,23.0399922,Shivam Hospital,anchor,7864058664
72.5469031,23.0943467,Hridaan Hospital & Pharmacy,anchor,7864133778
72.5134997,23.0188276,Sai Krupa Hospital,anchor,7864133781
72.5343808,23.0464267,Shreeji ENT and Orthopaedic Hospital,anchor,7864133783
72.459589,23.032409,Life Care Hospital,anchor,7864133797
72.5247419,23.0323612,Tender Touch Children's Hospital,anchor,7864133804
72.4658969,23.0333202,Shivam Hospital,anchor,7864133810
72.5257914,23.0310152,Devi Hospital,anchor,7864133820
72.512076,23.019857,Vismay Child Care Hospital,anchor,7864133830
72.4653431,23.0341111,Adarsh Hospital,anchor,7864133831
72.546777,23.0940118,Satyam Hospital,anchor,7864133836
72.5264512,23.0405865,Brinda Women's Hospital,anchor,7864133843
72.526418,23.040905,Shri Gordhandas Charitable Hospital,anchor,7864133850
72.642215,23.215334,Tejas Surgical Hospital,anchor,7867000243
72.636785,23.208854,Anand Hospital,anchor,7867000247
72.633425,23.179368,Sanjivani Babycare Hospital,anchor,7867000250
72.6341167,23.206201,Radhe Children Hospital,anchor,7867000254
72.6423782,23.2152171,Nitaben Shekhat Hospital,anchor,7867000256
72.6365927,23.2112394,Jalaram Hospital,anchor,7867000259
72.6217901,23.1857862,Aashka Multispeciality Hospitals,anchor,7867000264
72.6385544,23.1926044,Life Apollo Hospitals,anchor,7867000265
72.6366046,23.2085838,Sanjivani Children Hospital,anchor,7867000270
72.6412383,23.2048436,Raj Maternity Home,anchor,7867000271
72.6129583,23.1691147,Vishwas Kamdhenu Panchgavya Aarogya Hospital,anchor,7867000276
72.646697,23.20793,Shubham Maternity Hospital,anchor,7867000281
72.634087,23.179407,Vachhani Hospital,anchor,7867000282
72.635791,23.207234,Shraddha Bhakti Maternity Hospital,anchor,7867000283
72.636715,23.208897,Yashdeep Eye & Children Hospital,anchor,7867000290
72.641134,23.2151883,Mann Hospital,anchor,7867000292
72.636462,23.2107329,Tej Eye Centre Superspeciality Eye Hospital,anchor,7867000293
72.6436861,23.2088303,Jeevan Hospital,anchor,7867000294
72.639305,23.211897,Shree Rajratan General & Surgical Hospital,anchor,7867000298
72.5871116,23.1616888,Om Prasuti Gruha Hospital,anchor,7867000299
72.6421536,23.215199,Kalp Children Hospital,anchor,7867000300
72.636796,23.208987,Prathna Maternity Home,anchor,7867000304
72.746797,23.1777,Aarohi General Hospital,anchor,7867052424
72.726203,23.219372,Mahi Surgical Hospital,anchor,7867052447
72.700156,23.181426,Starling Hospital,anchor,7867052477
72.4788535,22.9874749,Sahyog Hospital,anchor,7935280835
72.5008661,22.9859705,Navjivan hospital,anchor,7935280841
72.493561,22.985509,Hope Hospital,anchor,7935280842
72.4989295,22.9845108,Mamata Hospital,anchor,7935280844
72.4984705,22.9835997,SHREY HOSPITAL,anchor,7935280849
72.501192,22.9809825,Mamta Hospital,anchor,7935280859
72.5957915,23.1029944,4D Square mall.,anchor,8138856440
72.4406666,23.1437636,Alpha College of Engineering,anchor,8143978971
72.5371832,23.0346573,Amrut Mody institute of Management,anchor,8844322304
72.5380428,23.0346697,LD College of Arts,anchor,8844322306
72.6280818,23.1817847,Radhe Hospital,anchor,9221706976
72.6231298,22.9767385,Vimla Hospital,anchor,9653242417
72.4675268,23.0451918,INDU MEDICARE,anchor,10038497023
72.5905818,23.0294026,Parijat Children Hospital,anchor,10172958936
72.5933151,23.0294443,Pinakin Dala Hospital,anchor,10172958937
72.5798827,23.0376253,muncipal parsuti Hospital,anchor,10172958938
72.5781781,23.0360259,Shahur Medical Hospital,anchor,10172958939
72.5804374,23.0342097,Paras Hospital,anchor,10172958940
72.577354,23.0320391,Shraddha Multispecialist Hospital,anchor,10172958941
72.5696194,23.036498,Sukhmani hospital,anchor,10172958942
72.5615306,23.046029,Sanjivani Eye Hospital,anchor,10172958943
72.5617682,23.0482467,Shreyas Dental Hospital,anchor,10172958944
72.5610257,23.0673766,,anchor,10172958945
72.5352149,23.0604678,GuruKrupa Hospital,anchor,10172958946
72.5431127,23.0694667,Aneri CHildren Hospital,anchor,10172958947
72.5259992,23.0318655,Rosemary Womens Hospital,anchor,10172958948
72.5271428,23.0311855,Akshay Heart and Medical Hospital,anchor,10172958949
72.5233013,23.0251067,Sangini Hospital,anchor,10172958950
72.5261005,23.0228555,Rathi Hospital,anchor,10172958951
72.538511,23.02222,Jyoti Maternity Hospital,anchor,10172958952
72.5325801,23.0067417,Vatsalya Gynec Hospital,anchor,10172958953
72.5432561,23.0086307,Jivraj Mehta Hospital,anchor,10172958954
72.5615615,23.0201123,Shree Harikrupa Hospital,anchor,10172958955
72.5944694,23.0493049,Kalptaru Hospital,anchor,10172958956
72.6074913,23.04949,Kidney Hospital,anchor,10172958957
72.6043839,23.0522972,Civil Hospital,anchor,10172958958
72.601975,23.0590415,Military Hospital,anchor,10172958959
72.6082954,23.0465729,GCS Hospital,anchor,10172958960
72.6391848,23.0237298,Ayushman Medical Hospital,anchor,10172958961
72.6528746,23.0729799,Shivam Surgical Hospital,anchor,10172958963
72.5431262,23.0694304,Aneri CHildren Hospital,anchor,10172958964
72.536403,23.0461549,Cornea Foundation Hospital,anchor,10172958965
72.5880349,23.0446678,Reliance mart,anchor,10591957830
72.5415625,23.1354749,KD Blossom,anchor,10839117487
72.5219853,23.0492471,Diva Women's Hospital,anchor,10882768855
72.6619214,23.1828788,Adarsh Prathamik Shala (Elementary school),anchor,11158523574
72.5453568,23.0386219,"Department of Animation, IT, IMS and Mobile Application",anchor,11181848879
72.5208841,23.0581218,Palladium Mall,anchor,11300307469
72.527325,23.0255598,ADORN Cosmetic Clinic,anchor,11900351768
72.5509537,23.0226039,ADORN AESTHETIC CLINIC,anchor,11900380051
72.6701157,23.0497137,TEJASYA ORTHOPAEDIC HOSPITAL - DR RAVI PATEL orthopaedic surgeon,anchor,12016441172
72.6715286,22.9941963,charvi Hospital,anchor,12871031670
